{"type":"FeatureCollection","features":[{"type":"Feature","properties":{"Name":"ST. CLAIR-BROWN WINERY","Address":"1605 ACTION AVE","BusinessDays":"Sun-Tues, Thu-Sat","BusinessHours":"12 PM - 6 PM"},"geometry":{"coordinates":[-122.28661178259911,38.30485473751037],"type":"Point"},"id":0},{"type":"Feature","properties":{"Name":"CHARLES KRUG WINERY","Address":"2800 MAIN ST","BusinessDays":"Sun, Wed-Sat","BusinessHours":"10:30 AM -5 PM"},"geometry":{"coordinates":[-122.48147456641809,38.51878235488772],"type":"Point"},"id":1},{"type":"Feature","properties":{"Name":"SAINT HELENA WINERY","Address":"100 PRATT AVE","BusinessDays":"Mon-Sat","BusinessHours":"10 AM - 4 PM"},"geometry":{"coordinates":[-122.4757067825997,38.51975186820013],"type":"Point"},"id":2},{"type":"Feature","properties":{"Name":"Fortunate Son Wines","Address":"825 FULTON LN","BusinessHours":""},"geometry":{"coordinates":[-122.47017678259922,38.51047808360022],"type":"Point"},"id":3},{"type":"Feature","properties":{"Name":"MERRYVALE VINEYARDS","Address":"1000 MAIN ST","BusinessDays":"Sun-Sat","BusinessHours":"10:30 AM - 5:30PM"},"geometry":{"coordinates":[-122.46434678259895,38.50212347706494],"type":"Point"},"id":4},{"type":"Feature","properties":{"Name":"BERINGER VINEYARDS","Address":"2000 MAIN ST","BusinessDays":"Sun-Sat","BusinessHours":"10 AM - 5 PM"},"geometry":{"coordinates":[-122.48104678259918,38.510551869716664],"type":"Point"},"id":6},{"type":"Feature","properties":{"Name":"DAVIES FAMILY WINERY","Address":"555 MAIN ST","BusinessDays":"Sun-Sat","BusinessHours":"9:45 AM - 5 PM"},"geometry":{"coordinates":[-122.46232623467671,38.498708477231645],"type":"Point"},"id":7},{"type":"Feature","properties":{"Name":"SALVESTRIN WINERY","Address":"397 MAIN ST","BusinessDays":"Sun-Sat","BusinessHours":"10 AM - 4 PM"},"geometry":{"coordinates":[-122.46126678259887,38.496715687991355],"type":"Point"},"id":8},{"type":"Feature","properties":{"Name":"Chase Cellars","Address":"2252 SULPHUR SPRINGS AVE","BusinessDays":"Tues-Sat","BusinessHours":"11 AM - 4 PM"},"geometry":{"coordinates":[-122.46869678259955,38.487421873528234],"type":"Point"},"id":9},{"type":"Feature","properties":{"Name":"SPOTTSWOODE WINERY","Address":"1902 MADRONA AVE","BusinessDays":"Mon-Fri","BusinessHours":"9 AM - 5 PM"},"geometry":{"coordinates":[-122.47889678259938,38.500231871417185],"type":"Point"},"id":10},{"type":"Feature","properties":{"Name":"VAROZZA","Address":"514 PRATT AVE"},"geometry":{"coordinates":[-122.47526378259882,38.517246476335515],"type":"Point"},"id":11},{"type":"Feature","properties":{"Name":"ANOMALY","Address":"455 BELLA VISTA CT"},"geometry":{"coordinates":[-122.47262678259864,38.48958989568217],"type":"Point"},"id":12},{"type":"Feature","properties":{"Name":"BRIAN ARDEN","Address":"331 SILVERADO TRL"},"geometry":{"coordinates":[-122.56616178259887,38.582882857782465],"type":"Point"},"id":13},{"type":"Feature","properties":{"Name":"AUBERT WINERY","Address":"333 SILVERADO TRL"},"geometry":{"coordinates":[-122.5662977825994,38.58190508848028],"type":"Point"},"id":14},{"type":"Feature","properties":{"Name":"LAVA VINE","Address":"965 SILVERADO TRL"},"geometry":{"coordinates":[-122.57496278259933,38.58737447294686],"type":"Point"},"id":15},{"type":"Feature","properties":{"Name":"T-VINE CELLARS","Address":"810 FOOTHILL BLVD"},"geometry":{"coordinates":[-122.57685123467675,38.57446008797035],"type":"Point"},"id":16},{"type":"Feature","properties":{"Name":"VINCENT ARROYO WINERY #2","Address":"2280 GREENWOOD AVE"},"geometry":{"coordinates":[-122.58728678259935,38.594445089337086],"type":"Point"},"id":17},{"type":"Feature","properties":{"Name":"TEDESCHI WINERY","Address":"2779 GRANT ST"},"geometry":{"coordinates":[-122.59384750863813,38.59052185652183],"type":"Point"},"id":18},{"type":"Feature","properties":{"Name":"BRAGG VINEYARDS","Address":"2020 CEDAR ST"},"geometry":{"coordinates":[-122.58905533052129,38.58192185794215],"type":"Point"},"id":19},{"type":"Feature","properties":{"Name":"JERICHO CANYON WINERY","Address":"3320 OLD LAWLEY TOLL RD"},"geometry":{"coordinates":[-122.59373130186722,38.62029738565988],"type":"Point"},"id":20},{"type":"Feature","properties":{"Name":"TOM EDDY WINERY","Address":"3870 STATE HIGHWAY 128"},"geometry":{"coordinates":[-122.6422505086379,38.60398585429758],"type":"Point"},"id":21},{"type":"Feature","properties":{"Name":"STORYBOOK MOUNTAIN VINEYARD","Address":"3835 STATE HIGHWAY 128"},"geometry":{"coordinates":[-122.64290605656026,38.59991508971251],"type":"Point"},"id":22},{"type":"Feature","properties":{"Name":"VICE VERSA WINERY","Address":"3475 CA-128, Calistoga, CA 94515"},"geometry":{"coordinates":[-122.62563379193328,38.59828713103889],"type":"Point"},"id":23},{"type":"Feature","properties":{"Name":"HELENA VIEW - JOHNSTON VINEYARDS","Address":"3510 STATE HIGHWAY 128"},"geometry":{"coordinates":[-122.62572578259943,38.60095885479785],"type":"Point"},"id":24},{"type":"Feature","properties":{"Name":"CHATEAU MONTELENA WINERY","Address":"1429 TUBBS LN"},"geometry":{"coordinates":[-122.59877156096809,38.60303808615038],"type":"Point"},"id":25},{"type":"Feature","properties":{"Name":"AMICI CELLARS","Address":"3130 OLD LAWLEY TOLL RD"},"geometry":{"coordinates":[-122.59481178259925,38.61167985302697],"type":"Point"},"id":26},{"type":"Feature","properties":{"Name":"MALDONADO WINERY","Address":"3070 OLD LAWLEY TOLL RD"},"geometry":{"coordinates":[-122.59214005656007,38.609134853448154],"type":"Point"},"id":27},{"type":"Feature","properties":{"Name":"BENNETT LANE WINERY","Address":"3340 STATE HIGHWAY 128"},"geometry":{"coordinates":[-122.61520250863754,38.59987747234135],"type":"Point"},"id":28},{"type":"Feature","properties":{"Name":"TAMBER BEY VINEYARDS","Address":"1251 TUBBS LN"},"geometry":{"coordinates":[-122.60516678259933,38.59480508936244],"type":"Point"},"id":29},{"type":"Feature","properties":{"Name":"BRASSWOOD WINERY","Address":"1171 TUBBS LN"},"geometry":{"coordinates":[-122.60520350863709,38.59224323976375],"type":"Point"},"id":30},{"type":"Feature","properties":{"Name":"ATALON WINERY","Address":"3299 BENNETT LN"},"geometry":{"coordinates":[-122.61021750863821,38.59918185509147],"type":"Point"},"id":31},{"type":"Feature","properties":{"Name":"COQUEREL FAMILY WINERY","Address":"3180 STATE HIGHWAY 128"},"geometry":{"coordinates":[-122.60939078259912,38.59298985611386],"type":"Point"},"id":32},{"type":"Feature","properties":{"Name":"ENVY WINES","Address":"1170 TUBBS LN"},"geometry":{"coordinates":[-122.6020357825991,38.59197185628227],"type":"Point"},"id":33},{"type":"Feature","properties":{"Name":"LAURA MICHAEL WINES","Address":"2250 LAKE COUNTY HWY"},"geometry":{"coordinates":[-122.5783417825994,38.59152270552946],"type":"Point"},"id":34},{"type":"Feature","properties":{"Name":"VINCENT ARROYO WINERY","Address":"2361 GREENWOOD AVE"},"geometry":{"coordinates":[-122.58861805655968,38.59724185541191],"type":"Point"},"id":35},{"type":"Feature","properties":{"Name":"CANDLESTICK RIDGE VINEYARD","Address":"3000 SUMMIT LAKE DR"},"geometry":{"coordinates":[-122.47884751366033,38.62011670957696],"type":"Point"},"id":36},{"type":"Feature","properties":{"Name":"PICKETT ROAD WINE CO.","Address":"2339 PICKETT RD"},"geometry":{"coordinates":[-122.55140978259917,38.59296632235797],"type":"Point"},"id":37},{"type":"Feature","properties":{"Name":"HOURGLASS WINERY","Address":"701 LOMMEL RD"},"geometry":{"coordinates":[-122.51552050863744,38.57929924341255],"type":"Point"},"id":38},{"type":"Feature","properties":{"Name":"BLACK SEARS WINERY","Address":"2610 SUMMIT LAKE DR"},"geometry":{"coordinates":[-122.4727615086378,38.6051194720886],"type":"Point"},"id":39},{"type":"Feature","properties":{"Name":"CIMAROSSA WINERY","Address":"1185 FRIESEN DR"},"geometry":{"coordinates":[-122.4739867825995,38.58932185671958],"type":"Point"},"id":40},{"type":"Feature","properties":{"Name":"O'SHAUGHNESSY WINERY","Address":"1150 FRIESEN DR"},"geometry":{"coordinates":[-122.47416678259924,38.58695347296674],"type":"Point"},"id":41},{"type":"Feature","properties":{"Name":"ROBERT CRAIG WINERY","Address":"2475 SUMMIT LAKE DR"},"geometry":{"coordinates":[-122.46815523467728,38.5994824723617],"type":"Point"},"id":42},{"type":"Feature","properties":{"Name":"PALISADES WINERY","Address":"7220 POPE VALLEY RD"},"geometry":{"coordinates":[-122.46096678259951,38.65139184646415],"type":"Point"},"id":43},{"type":"Feature","properties":{"Name":"ADAMVS","Address":"501 N WHITE COTTAGE RD"},"geometry":{"coordinates":[-122.45373750863797,38.584191857567134],"type":"Point"},"id":44},{"type":"Feature","properties":{"Name":"NORMAN ALUMBAUGH WINERY","Address":"1996 POPE CANYON RD"},"geometry":{"coordinates":[-122.39663678259964,38.613113471703144],"type":"Point"},"id":45},{"type":"Feature","properties":{"Name":"WHISKEY RIVER RANCH VINEYARDS","Address":"1844 POPE CANYON RD"},"geometry":{"coordinates":[-122.39562678259946,38.6049750900587],"type":"Point"},"id":46},{"type":"Feature","properties":{"Name":"ALKO RANCH, LLC","Address":"1784 POPE CANYON RD"},"geometry":{"coordinates":[-122.40040605655955,38.60441185422715],"type":"Point"},"id":47},{"type":"Feature","properties":{"Name":"DUNN VINEYARDS","Address":"805 N WHITE COTTAGE RD"},"geometry":{"coordinates":[-122.45089178259921,38.592916856126806],"type":"Point"},"id":48},{"type":"Feature","properties":{"Name":"SUMMIT LAKE VINEYARDS","Address":"2000 SUMMIT LAKE DR"},"geometry":{"coordinates":[-122.46024750863802,38.60012508972545],"type":"Point"},"id":49},{"type":"Feature","properties":{"Name":"OUTPOST WINES","Address":"2075 SUMMIT LAKE DR"},"geometry":{"coordinates":[-122.46360605656007,38.59812832391711],"type":"Point"}},{"type":"Feature","properties":{"Name":"ROBERT FOLEY VINEYARDS","Address":"1296 SUMMIT LAKE DR"},"geometry":{"coordinates":[-122.45179878259913,38.597852089570154],"type":"Point"},"id":51},{"type":"Feature","properties":{"Name":"RED LAKE WINERY","Address":"860 FRIESEN DR"},"geometry":{"coordinates":[-122.46378750863812,38.59252023968685],"type":"Point"},"id":52},{"type":"Feature","properties":{"Name":"LAST RESORT WINERY","Address":"1600 AETNA SPRINGS RD"},"geometry":{"coordinates":[-122.48154678259954,38.65469184591794],"type":"Point"}},{"type":"Feature","properties":{"Name":"YOUNG WINERY","Address":"1803 AETNA SPRINGS RD"},"geometry":{"coordinates":[-122.474036782599,38.65246509330814],"type":"Point"},"id":54},{"type":"Feature","properties":{"Name":"AETNA SPRING CELLARS","Address":"7227 POPE VALLEY RD"},"geometry":{"coordinates":[-122.46635478259842,38.65206546981443],"type":"Point"},"id":55},{"type":"Feature","properties":{"Name":"POPE VALLEY WINERY","Address":"6613 POPE VALLEY RD"},"geometry":{"coordinates":[-122.45155678259911,38.63398833474923],"type":"Point"}},{"type":"Feature","properties":{"Name":"CALLA LILY ESTATE AND  WINERY","Address":"6307 POPE VALLEY RD"},"geometry":{"coordinates":[-122.45099178259974,38.62500185082581],"type":"Point"}},{"type":"Feature","properties":{"Name":"DIAMOND MOUNTAIN WINERY","Address":"2111 DIAMOND MOUNTAIN RD"},"geometry":{"coordinates":[-122.57947078259915,38.54477308594164],"type":"Point"}},{"type":"Feature","properties":{"Name":"PARABLE WINERY","Address":"4300 SILVERADO TRL"},"geometry":{"coordinates":[-122.52565678259924,38.57707508814974],"type":"Point"}},{"type":"Feature","properties":{"Name":"FISHER WINERY","Address":"4771 N SILVERADO TRL"},"geometry":{"coordinates":[-122.5400587825994,38.57692947345251],"type":"Point"}},{"type":"Feature","properties":{"Name":"GIRARD NAPA VALLEY","Address":"1077 DUNAWEAL LN"},"geometry":{"coordinates":[-122.5514382346766,38.572153701942426],"type":"Point"}},{"type":"Feature","properties":{"Name":"PAOLETTI ESTATES WINERY","Address":"4501 SILVERADO TRL"},"geometry":{"coordinates":[-122.54405833052063,38.57290585942903],"type":"Point"},"id":62},{"type":"Feature","properties":{"Name":"JOSEPH CELLARS","Address":"4455 N ST HELENA HWY"},"geometry":{"coordinates":[-122.56379276299951,38.56245425939079],"type":"Point"},"id":63},{"type":"Feature","properties":{"Name":"LARKMEAD VINEYARDS","Address":"1100 LARKMEAD LN"},"geometry":{"coordinates":[-122.52469678259914,38.55836586182966],"type":"Point"},"id":64},{"type":"Feature","properties":{"Name":"FRANK FAMILY VINEYARDS","Address":"1091 LARKMEAD LN"},"geometry":{"coordinates":[-122.52224823467708,38.55942024901486],"type":"Point"},"id":65},{"type":"Feature","properties":{"Name":"SCHRAMSBERG VINEYARDS WINERY","Address":"1400 SCHRAMSBERG RD"},"geometry":{"coordinates":[-122.53806205192217,38.55048582219152],"type":"Point"},"id":66},{"type":"Feature","properties":{"Name":"BEHRENS FAMILY WINERY","Address":"4078 SPRING MOUNTAIN RD"},"geometry":{"coordinates":[-122.55807319756197,38.53218149895744],"type":"Point"},"id":67},{"type":"Feature","properties":{"Name":"RITCHIE CREEK VINEYARDS","Address":"4024 SPRING MOUNTAIN RD"},"geometry":{"coordinates":[-122.56186460448222,38.52831315006537],"type":"Point"},"id":68},{"type":"Feature","properties":{"Name":"SHERWIN FAMILY VINEYARDS","Address":"4060 SPRING MOUNTAIN RD"},"geometry":{"coordinates":[-122.55866289143094,38.53001057927872],"type":"Point"},"id":69},{"type":"Feature","properties":{"Name":"BARNETT VINEYARDS","Address":"4070 SPRING MOUNTAIN RD"},"geometry":{"coordinates":[-122.55363445268614,38.53202424411046],"type":"Point"},"id":70},{"type":"Feature","properties":{"Name":"PRIDE MOUNTAIN VINEYARDS","Address":"4026 SPRING MOUNTAIN RD"},"geometry":{"coordinates":[-122.56494678259907,38.52782896615054],"type":"Point"},"id":71},{"type":"Feature","properties":{"Name":"VINEYARD 7 AND 8","Address":"4028 SPRING MOUNTAIN RD"},"geometry":{"coordinates":[-122.55253214683756,38.52617312867673],"type":"Point"},"id":72},{"type":"Feature","properties":{"Name":"STONY HILL VINEYARD","Address":"3331 ST HELENA HWY N"},"geometry":{"coordinates":[-122.52919875640316,38.53553405102443],"type":"Point"},"id":73},{"type":"Feature","properties":{"Name":"SMITH MADRONE VINEYARDS","Address":"4022 SPRING MOUNTAIN RD"},"geometry":{"coordinates":[-122.54855631526443,38.532527212421456],"type":"Point"},"id":74},{"type":"Feature","properties":{"Name":"FLYNNVILLE WINE COMPANY","Address":"1184 MAPLE LN"},"geometry":{"coordinates":[-122.53842750863754,38.56226992262779],"type":"Point"}},{"type":"Feature","properties":{"Name":"KENEFICK WINERY","Address":"2200 PICKETT RD"},"geometry":{"coordinates":[-122.55662863322274,38.59063741451439],"type":"Point"}},{"type":"Feature","properties":{"Name":"ARAUJO ESTATES WINERY","Address":"2155 PICKETT RD"},"geometry":{"coordinates":[-122.55418942482405,38.58484794743288],"type":"Point"}},{"type":"Feature","properties":{"Name":"FAIRVIEW ESTATES WINERY","Address":"4550 SILVERADO TRL"},"geometry":{"coordinates":[-122.54937229226476,38.57545419812661],"type":"Point"}},{"type":"Feature","properties":{"Name":"PHIFER PAVITT FAMILY VINEYARDS","Address":"4660 SILVERADO TRL"},"geometry":{"coordinates":[-122.55143404260187,38.576970126382776],"type":"Point"},"id":79},{"type":"Feature","properties":{"Name":"VENGE VINEYARDS","Address":"4708 SILVERADO TRL"},"geometry":{"coordinates":[-122.55328046318421,38.58246018970718],"type":"Point"},"id":80},{"type":"Feature","properties":{"Name":"CASTELLO DI AMOROSA","Address":"4045 N ST HELENA HWY"},"geometry":{"coordinates":[-122.54250678259888,38.55844314874611],"type":"Point"},"id":81},{"type":"Feature","properties":{"Name":"CHECKERBOARD VINEYARDS","Address":"4331 AZALEA SPRINGS WAY"},"geometry":{"coordinates":[-122.55496605656006,38.551331537359346],"type":"Point"}},{"type":"Feature","properties":{"Name":"1510 ACQUISITION LLC","Address":"1510 DIAMOND MOUNTAIN RD"},"geometry":{"coordinates":[-122.57497678259816,38.566556375344305],"type":"Point"}},{"type":"Feature","properties":{"Name":"TEACHWORTH WINERY","Address":"4451 N ST HELENA HWY"},"geometry":{"coordinates":[-122.55711678259907,38.55845314874631],"type":"Point"}},{"type":"Feature","properties":{"Name":"THE VINEYARDIST","Address":"263 PETRIFIED FOREST RD"},"geometry":{"coordinates":[-122.61652914655298,38.57326486545955],"type":"Point"}},{"type":"Feature","properties":{"Name":"DIAMOND CREEK VINEYARDS","Address":"1500 DIAMOND MOUNTAIN RD"},"geometry":{"coordinates":[-122.57423515683476,38.56504661244446],"type":"Point"}},{"type":"Feature","properties":{"Name":"1520 ACQUISITION LLC","Address":"1520 DIAMOND MOUNTAIN RD"},"geometry":{"coordinates":[-122.58049178259887,38.5702805343181],"type":"Point"}},{"type":"Feature","properties":{"Name":"WALLIS FAMILY ESTATE","Address":"1670 DIAMOND MOUNTAIN RD"},"geometry":{"coordinates":[-122.57916605656004,38.563934761676705],"type":"Point"}},{"type":"Feature","properties":{"Name":"DAVIS ESTATES","Address":"4060 SILVERADO TRL"},"geometry":{"coordinates":[-122.28730065969053,38.35739040329287],"type":"Point"}},{"type":"Feature","properties":{"Name":"LADERA WINERY","Address":"3942 SILVERADO TRL"},"geometry":{"coordinates":[-122.51015225104393,38.56324701949089],"type":"Point"}},{"type":"Feature","properties":{"Name":"REVERIE II WINERY","Address":"264 N FORK CRYSTAL SPRINGS RD"},"geometry":{"coordinates":[-122.49623678259846,38.56041992314212],"type":"Point"}},{"type":"Feature","properties":{"Name":"MENDING WALL WINERY","Address":"3730 SILVERADO TRL"},"geometry":{"coordinates":[-122.49970750863798,38.55609314884882],"type":"Point"}},{"type":"Feature","properties":{"Address":"1111 DUNAWEAL LN","Name":"STERLING VINEYARDS"},"geometry":{"coordinates":[-122.54713645363137,38.568743760924576],"type":"Point"}},{"type":"Feature","properties":{"Address":"1183 DUNAWEAL LN","Name":"TWOMEY CELLARS"},"geometry":{"coordinates":[-122.55679178259908,38.565898860587595],"type":"Point"},"id":94},{"type":"Feature","properties":{"Address":"563 CRYSTAL SPRINGS RD","Name":"WOODBRIDGE WINERY"},"geometry":{"coordinates":[-122.48036159615482,38.54393434362376],"type":"Point"},"id":95},{"type":"Feature","properties":{"Address":"3242 N SILVERADO TRL","Name":"BOESCHEN WINERY"},"geometry":{"coordinates":[-122.48948217526342,38.53839358481267],"type":"Point"}},{"type":"Feature","properties":{"Address":"601 MUND RD","Name":"ARNS WINERY"},"geometry":{"coordinates":[-122.45842968799761,38.53483146711346],"type":"Point"}},{"type":"Feature","properties":{"Address":"2900 SILVERADO TRL","Name":"MELKA WINERY"},"geometry":{"coordinates":[-122.48274750863831,38.52634508468307],"type":"Point"}},{"type":"Feature","properties":{"Address":"2971 SILVERADO TRL","Name":"TITUS VINEYARDS"},"geometry":{"coordinates":[-122.48544855119046,38.527465811782804],"type":"Point"}},{"type":"Feature","properties":{"Address":"3473 SILVERADO TRL","Name":"CASA NUESTRA"},"geometry":{"coordinates":[-122.49472468710051,38.543731892615284],"type":"Point"}},{"type":"Feature","properties":{"Address":"975 DEER PARK RD","Name":"BREMER FAMILY WINERY"},"geometry":{"coordinates":[-122.47091721485424,38.55121487851605],"type":"Point"}},{"type":"Feature","properties":{"Address":"945 DEER PARK RD","Name":"BROMAN CELLARS"},"geometry":{"coordinates":[-122.46911887011993,38.54976810688754],"type":"Point"}},{"type":"Feature","properties":{"Address":"3468 SILVERADO TRL","Name":"CHATEAU BOSWELL"},"geometry":{"coordinates":[-122.48926152813203,38.544481970847585],"type":"Point"}},{"type":"Feature","properties":{"Address":"3524 SILVERADO TRL","Name":"HUNNICUTT WINERY"},"geometry":{"coordinates":[-122.48839339921763,38.547401223302586],"type":"Point"}},{"type":"Feature","properties":{"Address":"3522 SILVERADO TRL","Name":"ROMBAUER VINEYARDS"},"geometry":{"coordinates":[-122.49271744734538,38.54603132338272],"type":"Point"}},{"type":"Feature","properties":{"Address":"3528 SILVERADO TRL N","Name":"EHREN JORDAN WINE CELLARS"},"geometry":{"coordinates":[-122.48974565974036,38.54911780215164],"type":"Point"}},{"type":"Feature","properties":{"Address":"1156 DEER PARK RD","Name":"VINEYARD 22"},"geometry":{"coordinates":[-122.46794298192697,38.55965296909673],"type":"Point"}},{"type":"Feature","properties":{"Address":"1108 DEER PARK RD","Name":"INK GRADE WINERY"},"geometry":{"coordinates":[-122.47512273048324,38.55690085907901],"type":"Point"}},{"type":"Feature","properties":{"Address":"1120 DEER PARK RD","Name":"VIADER VINEYARDS"},"geometry":{"coordinates":[-122.47363495620132,38.560081001454705],"type":"Point"}},{"type":"Feature","properties":{"Address":"424 CRYSTAL SPRINGS RD","Name":"MERUS WINES"},"geometry":{"coordinates":[-122.48413421172262,38.55244588797211],"type":"Point"}},{"type":"Feature","properties":{"Address":"3718 St Helena Hwy, Calistoga, CA 94515","Name":"MADRIGAL VINEYARDS"},"geometry":{"coordinates":[-122.52089683749065,38.55330010149103],"type":"Point"}},{"type":"Feature","properties":{"Address":"1010 BIG TREE RD","Name":"BENESSERE"},"geometry":{"coordinates":[-122.50650529315627,38.552184553417675],"type":"Point"}},{"type":"Feature","properties":{"Address":"1015 BIG TREE RD","Name":"NAPA DE ORO WINERY"},"geometry":{"coordinates":[-122.50343387484824,38.548875735088274],"type":"Point"}},{"type":"Feature","properties":{"Address":"3125 N ST HELENA HWY","Name":"Parallel Wines"},"geometry":{"coordinates":[-122.50259277019728,38.52848326919681],"type":"Point"}},{"type":"Feature","properties":{"Address":"3291 St Helena Hwy, St Helena, CA 94574","Name":"SABINA VINEYARDS"},"geometry":{"coordinates":[-122.50958185534967,38.53666856318287],"type":"Point"}},{"type":"Feature","properties":{"Address":"3285 ST HELENA HWY","Name":"BERGMAN FAMILY WINERY"},"geometry":{"coordinates":[-122.51293908651874,38.53471641673784],"type":"Point"}},{"type":"Feature","properties":{"Address":"3315 N ST HELENA HWY","Name":"EL MOLINO WINERY"},"geometry":{"coordinates":[-122.51020215593906,38.539607449544064],"type":"Point"}},{"type":"Feature","properties":{"Address":"3199 St Helena Hwy","Name":"AXR WINERY"},"geometry":{"coordinates":[-122.50463591675715,38.53045923751412],"type":"Point"}},{"type":"Feature","properties":{"Address":"3070 ST HELENA HWY","Name":"TRINCHERO NAPA VALLEY"},"geometry":{"coordinates":[-122.49719611167954,38.52820687119669],"type":"Point"}},{"type":"Feature","properties":{"Address":"3200 EHLERS LN","Name":"EHLERS ESTATE WINERY"},"geometry":{"coordinates":[-122.49737158189015,38.53184752240148],"type":"Point"}},{"type":"Feature","properties":{"Address":"3244 EHLERS LN","Name":"ALLORA WINERY"},"geometry":{"coordinates":[-122.49335919479239,38.53557822431094],"type":"Point"}},{"type":"Feature","properties":{"Address":"1000 LODI LN","Name":"DUCKHORN VINEYARDS"},"geometry":{"coordinates":[-122.49074302371552,38.52944341476848],"type":"Point"}},{"type":"Feature","properties":{"Address":"3022 N ST HELENA HWY","Name":"FREEMARK ABBEY"},"geometry":{"coordinates":[-122.4964333058688,38.525656008547344],"type":"Point"}},{"type":"Feature","properties":{"Address":"3747 LANGTRY RD","Name":"FLYING LADY WINERY"},"geometry":{"coordinates":[-122.53774511528806,38.50439068634975],"type":"Point"}},{"type":"Feature","properties":{"Address":"3787 SPRING MOUNTAIN RD","Name":"LOKOYA"},"geometry":{"coordinates":[-122.5399381547538,38.51398077286842],"type":"Point"}},{"type":"Feature","properties":{"Address":"4013 SPRING MOUNTAIN RD","Name":"PALOMA VINEYARD"},"geometry":{"coordinates":[-122.54911728230016,38.52230910860055],"type":"Point"}},{"type":"Feature","properties":{"Address":"3851 SPRING MOUNTAIN RD","Name":"GUILLIAMS"},"geometry":{"coordinates":[-122.54296094343948,38.521820349371296],"type":"Point"}},{"type":"Feature","properties":{"Address":"4001 SPRING MOUNTAIN RD","Name":"DOMAINE CHARBAY WINERY"},"geometry":{"coordinates":[-122.54382440518914,38.519815100942935],"type":"Point"}},{"type":"Feature","properties":{"Address":"3646 SPRING MOUNTAIN RD","Name":"3646 SMR VINEYARD"},"geometry":{"coordinates":[-122.53679322041748,38.52785585136672],"type":"Point"}},{"type":"Feature","properties":{"Address":"3656 SPRING MOUNTAIN RD","Name":"ROBERT KEENAN WINERY"},"geometry":{"coordinates":[-122.53757481995686,38.52444861559701],"type":"Point"}},{"type":"Feature","properties":{"Address":"4015 SPRING MOUNTAIN RD","Name":"SCHWEIGER VINEYARDS"},"geometry":{"coordinates":[-122.54748312726575,38.52596510351498],"type":"Point"}},{"type":"Feature","properties":{"Address":"2805 SPRING MOUNTAIN RD","Name":"SPRING MOUNTAIN VINEYARDS"},"geometry":{"coordinates":[-122.48986142448001,38.506071917975646],"type":"Point"},"id":132},{"type":"Feature","properties":{"Address":"2555 MADRONA AVE","Name":"NEWTON WINERY"},"geometry":{"coordinates":[-122.49451076955637,38.50057257171164],"type":"Point"}},{"type":"Feature","properties":{"Address":"2820 ST HELENA HWY","Name":"BALLENTINE WINERY"},"geometry":{"coordinates":[-122.48970707403905,38.51965338511971],"type":"Point"}},{"type":"Feature","properties":{"Address":"2812 N ST HELENA HWY","Name":"MARKHAM WINERY"},"geometry":{"coordinates":[-122.48900481885457,38.51890400267058],"type":"Point"}},{"type":"Feature","properties":{"Address":"2929 N ST HELENA HWY","Name":"VINEYARD 29"},"geometry":{"coordinates":[-122.49593929172039,38.51960752836314],"type":"Point"}},{"type":"Feature","properties":{"Address":"2825 N ST HELENA HWY","Name":"MORLET FAMILY ESTATE"},"geometry":{"coordinates":[-122.49017820302632,38.517622352847155],"type":"Point"}},{"type":"Feature","properties":{"Address":"2910 N ST HELENA HWY","Name":"REVANA WINERY"},"geometry":{"coordinates":[-122.49247114972712,38.52078184539462],"type":"Point"}},{"type":"Feature","properties":{"Address":"2867 ST HELENA HWY","Name":"ST CLEMENT VINEYARDS"},"geometry":{"coordinates":[-122.4926651975943,38.518324848626946],"type":"Point"}},{"type":"Feature","properties":{"Address":"2849 N ST HELENA HWY","Name":"WILLIAM COLE WINERY"},"geometry":{"coordinates":[-122.49051082036401,38.51799502560678],"type":"Point"}},{"type":"Feature","properties":{"Address":"3358 ST HELENA HWY","Name":"TURLEY WINE CELLARS"},"geometry":{"coordinates":[-122.50695643936373,38.54060323744062],"type":"Point"}},{"type":"Feature","properties":{"Address":"2920 SPRING MOUNTAIN RD","Name":"FANTESCA ESTATE"},"geometry":{"coordinates":[-122.49525064784714,38.51266344266952],"type":"Point"}},{"type":"Feature","properties":{"Address":"3505 SPRING MOUNTAIN RD","Name":"TITANIUM WINERY"},"geometry":{"coordinates":[-122.5221216336177,38.51765799273437],"type":"Point"}},{"type":"Feature","properties":{"Address":"3101 SPRING MOUNTAIN RD","Name":"CHATEAU CHEVALIER WINERY"},"geometry":{"coordinates":[-122.5107373849385,38.51430170939844],"type":"Point"}},{"type":"Feature","properties":{"Address":"716 LIPARITA AVE","Name":"NEAL WINERY"},"geometry":{"coordinates":[-122.46294635970378,38.57402313466889],"type":"Point"}},{"type":"Feature","properties":{"Address":"920 N WHITE COTTAGE RD","Name":"SPENCE VINEYARDS"},"geometry":{"coordinates":[-122.44481770262257,38.592426746636164],"type":"Point"}},{"type":"Feature","properties":{"Address":"350 BROOKSIDE DR","Name":"DIOGENES RIDGE WINERY"},"geometry":{"coordinates":[-122.45361934688157,38.572109351560755],"type":"Point"}},{"type":"Feature","properties":{"Address":"120 S WHITE COTTAGE RD","Name":"CADE AT THIRTEENTH"},"geometry":{"coordinates":[-122.4574362823208,38.56909033014071],"type":"Point"}},{"type":"Feature","properties":{"Address":"383 LAS POSADAS RD","Name":"ROCKY RIDGE WINERY"},"geometry":{"coordinates":[-122.42818893371877,38.569849569050945],"type":"Point"}},{"type":"Feature","properties":{"Address":"365 LAS POSADAS RD","Name":"ABREU VINEYARDS"},"geometry":{"coordinates":[-122.43246081976724,38.566227790221006],"type":"Point"}},{"type":"Feature","properties":{"Address":"360 HOWELL MOUNTAIN RD","Name":"CADE WINERY"},"geometry":{"coordinates":[-122.44816211021845,38.560821681918156],"type":"Point"}},{"type":"Feature","properties":{"Address":"425 COLD SPRINGS RD","Name":"HOWELL AT THE MOON WINERY"},"geometry":{"coordinates":[-122.43062007221707,38.557059465712484],"type":"Point"}},{"type":"Feature","properties":{"Address":"1100 LAS POSADAS RD","Name":"LA JOTA VINEYARD"},"geometry":{"coordinates":[-122.41770125248918,38.55410751753644],"type":"Point"}},{"type":"Feature","properties":{"Address":"320 STONE RIDGE RD","Name":"LAIL VINEYARDS"},"geometry":{"coordinates":[-122.46246139607817,38.569558587502655],"type":"Point"}},{"type":"Feature","properties":{"Address":"330 STONE RIDGE RD","Name":"BRAVANTE WINERY"},"geometry":{"coordinates":[-122.46296252474642,38.56837799666806],"type":"Point"}},{"type":"Feature","properties":{"Address":"335 WEST LN","Name":"ARKENSTONE VINEYARDS"},"geometry":{"coordinates":[-122.46548315676569,38.56350117084381],"type":"Point"}},{"type":"Feature","properties":{"Address":"4105 CHILES POPE VALLEY RD","Name":"MAXVILLE LAKE WINERY"},"geometry":{"coordinates":[-122.37491463405345,38.55798522810076],"type":"Point"}},{"type":"Feature","properties":{"Address":"1181 LAS POSADAS RD","Name":"W H SMITH WINES"},"geometry":{"coordinates":[-122.41188658770974,38.54528678451322],"type":"Point"}},{"type":"Feature","properties":{"Address":"1501 BIG ROCK RD","Name":"FORMAN VINEYARD"},"geometry":{"coordinates":[-122.44553653367771,38.51734944637167],"type":"Point"}},{"type":"Feature","properties":{"Address":"200 TAPLIN RD","Name":"JOSEPH PHELPS VINEYARDS"},"geometry":{"coordinates":[-122.4287729988011,38.50726613421298],"type":"Point"}},{"type":"Feature","properties":{"Address":"844 MEADOWOOD LN","Name":"SEVEN STONES WINERY"},"geometry":{"coordinates":[-122.45451373728662,38.52271787503463],"type":"Point"}},{"type":"Feature","properties":{"Address":"690 MEADOWOOD LN","Name":"PALLADIAN ESTATE"},"geometry":{"coordinates":[-122.45887003673981,38.519310171475496],"type":"Point"}},{"type":"Feature","properties":{"Address":"500 MEADOWOOD LN","Name":"MEADOWOOD LANE WINERY"},"geometry":{"coordinates":[-122.45522391582847,38.51716918918393],"type":"Point"}},{"type":"Feature","properties":{"Address":"1030 SILVERADO TRL","Name":"NAPA VALLEY RESERVE"},"geometry":{"coordinates":[-122.45874835418329,38.515990811592474],"type":"Point"}},{"type":"Feature","properties":{"Address":"3 ZINFANDEL LN","Name":"CASTELLUCCI FAMILY WINERY"},"geometry":{"coordinates":[-122.4272356890101,38.49768412729301],"type":"Point"}},{"type":"Feature","properties":{"Address":"1314 CONN VALLEY RD","Name":"SEAVEY VINEYARD"},"geometry":{"coordinates":[-122.39639189209421,38.508244199166114],"type":"Point"}},{"type":"Feature","properties":{"Address":"500 TAPLIN RD","Name":"HEITZ WINE CELLARS"},"geometry":{"coordinates":[-122.41779170925574,38.502105538648266],"type":"Point"}},{"type":"Feature","properties":{"Address":"1291 CONN VALLEY RD","Name":"MANSFIELD WINERY"},"geometry":{"coordinates":[-122.40164760500645,38.50572803310001],"type":"Point"}},{"type":"Feature","properties":{"Address":"680 ROSSI RD","Name":"ANDERSON'S CONN VALLEY WINERY"},"geometry":{"coordinates":[-122.41142546967666,38.51261132379656],"type":"Point"}},{"type":"Feature","properties":{"Address":"820 GREENFIELD RD","Name":"BUEHLER VINEYARDS"},"geometry":{"coordinates":[-122.38066187383627,38.5125212756472],"type":"Point"}},{"type":"Feature","properties":{"Address":"3080 LOWER CHILES VALLEY RD","Name":"VOLKER EISELE FAMILY ESTATE"},"geometry":{"coordinates":[-122.32615770071644,38.532547652668],"type":"Point"}},{"type":"Feature","properties":{"Address":"3206 CHILES POPE VALLEY RD","Name":"GREEN AND RED VINEYARD"},"geometry":{"coordinates":[-122.3394037578631,38.52996919118553],"type":"Point"}},{"type":"Feature","properties":{"Address":"3450 SAGE CANYON RD","Name":"SOMERSTON WINERY"},"geometry":{"coordinates":[-122.26740078268261,38.519359704715725],"type":"Point"}},{"type":"Feature","properties":{"Address":"2950 SAGE CANYON RD","Name":"NICHELINI VINEYARDS"},"geometry":{"coordinates":[-122.29367460720397,38.49888775891006],"type":"Point"}},{"type":"Feature","properties":{"Address":"3233 SAGE CANYON RD","Name":"BROWN ESTATE VINEYARDS"},"geometry":{"coordinates":[-122.27636686402298,38.50515297623622],"type":"Point"}},{"type":"Feature","properties":{"Address":"647 GREENFIELD RD","Name":"AONAIR WINERY"},"geometry":{"coordinates":[-122.39085481885483,38.51115400525589],"type":"Point"}},{"type":"Feature","properties":{"Address":"1089 GREENFIELD RD","Name":"AMIZETTA VINEYARDS"},"geometry":{"coordinates":[-122.38232335418294,38.522337208305515],"type":"Point"}},{"type":"Feature","properties":{"Address":"999 SILVERADO TRL","Name":"AUBURNJAMES WINERY"},"geometry":{"coordinates":[-122.43932408651892,38.50570240562422],"type":"Point"}},{"type":"Feature","properties":{"Address":"2470 SAGE CANYON RD","Name":"KULETO VILLA VINEYARDS"},"geometry":{"coordinates":[-122.32529481885436,38.49908021063442],"type":"Point"}},{"type":"Feature","properties":{"Address":"3890 LANGTRY RD","Name":"CAIN CELLARS"},"geometry":{"coordinates":[-122.53994855829957,38.4930101214492],"type":"Point"},"id":180},{"type":"Feature","properties":{"Address":"2233 SULPHUR SPRINGS AVE","Name":"MARCIANO WINERY"},"geometry":{"coordinates":[-122.46845370020694,38.485919730450775],"type":"Point"}},{"type":"Feature","properties":{"Address":"2585 SULPHUR SPRINGS AVE","Name":"EDGE HILL ESTATE WINERY"},"geometry":{"coordinates":[-122.47453828031706,38.48526678731653],"type":"Point"}},{"type":"Feature","properties":{"Address":"1563 ST HELENA HWY","Name":"WHITEHALL LANE WINERY"},"geometry":{"coordinates":[-122.43833200050412,38.47771555502598],"type":"Point"}},{"type":"Feature","properties":{"Address":"1885 ZINFANDEL LN","Name":"TOAD HALL CELLARS"},"geometry":{"coordinates":[-122.45118846856954,38.47351538971432],"type":"Point"}},{"type":"Feature","properties":{"Address":"2006 W ZINFANDEL LN","Name":"FLORA SPRINGS WINE CO"},"geometry":{"coordinates":[-122.45579292576852,38.4777853468903],"type":"Point"}},{"type":"Feature","properties":{"Address":"2125 INGLEWOOD AVE","Name":"SINEGAL ESTATE WINERY"},"geometry":{"coordinates":[-122.4602640865186,38.481495015139586],"type":"Point"}},{"type":"Feature","properties":{"Address":"1455 INGLEWOOD AVE","Name":"VILLA HELENA"},"geometry":{"coordinates":[-122.45092738832895,38.4858504867679],"type":"Point"}},{"type":"Feature","properties":{"Address":"987 ST HELENA HWY","Name":"CORISON WINERY"},"geometry":{"coordinates":[-122.44741011299394,38.48499291346991],"type":"Point"}},{"type":"Feature","properties":{"Address":"1919 INGLEWOOD AVE","Name":"YOUNG INGLEWOOD VINEYARDS"},"geometry":{"coordinates":[-122.45549903720725,38.48293945207945],"type":"Point"}},{"type":"Feature","properties":{"Address":"401 ST HELENA HWY","Name":"HALL WINERY"},"geometry":{"coordinates":[-122.45305516515253,38.488967961497224],"type":"Point"}},{"type":"Feature","properties":{"Address":"277 ST HELENA HWY","Name":"SUTTER HOME WINERY"},"geometry":{"coordinates":[-122.45375081969408,38.49127440346035],"type":"Point"},"id":191},{"type":"Feature","properties":{"Address":"1281 LEWELLING LN","Name":"PRAGER WINERY"},"geometry":{"coordinates":[-122.45491444108441,38.49121663625817],"type":"Point"},"id":192},{"type":"Feature","properties":{"Address":"1091 S ST HELENA HWY","Name":"MILAT WINERY"},"geometry":{"coordinates":[-122.44614511407963,38.48512342995892],"type":"Point"}},{"type":"Feature","properties":{"Address":"1445 S ST HELENA HWY","Name":"DEL DOTTO FAMILY WINERY"},"geometry":{"coordinates":[-122.4425202564357,38.479882005911804],"type":"Point"}},{"type":"Feature","properties":{"Address":"1460 NIEBAUM LN","Name":"NIEBAUM COPPOLA ESTATE NIEBAUM LN"},"geometry":{"coordinates":[-122.43794500303534,38.453849284958494],"type":"Point"}},{"type":"Feature","properties":{"Name":"NIEBAUM COPPOLA ESTATE HWY 29","Address":"1991 ST HELENA HWY"},"geometry":{"coordinates":[-122.43126119480573,38.45456113073996],"type":"Point"}},{"type":"Feature","properties":{"Address":"1570 BELLA OAKS LN","Name":"STAGLIN WINERY"},"geometry":{"coordinates":[-122.42918893295466,38.44166020627665],"type":"Point"}},{"type":"Feature","properties":{"Address":"1271 MANLEY LN","Name":"SWANSON VINEYARDS"},"geometry":{"coordinates":[-122.41909721765973,38.450457747130855],"type":"Point"}}]}